{
  "restaurants": [
    {
      "id": "r1",
      "name": "Trattoria Luna",
      "cuisine": "ITALIAN",
      "rating": 4.7,
      "priceLevel": 3,
      "address": "123 Columbus Ave, San Francisco, CA",
      "latitude": 37.8001,
      "longitude": -122.4103,
      "imageUrl": "https://images.unsplash.com/photo-1517248135467-4c7edcad34c4?w=800",
      "description": "Cozy Italian spot known for handmade pasta, wood-fired pizzas, and an intimate candlelit atmosphere."
    },
    {
      "id": "r2",
      "name": "Sakura Sushi Bar",
      "cuisine": "JAPANESE",
      "rating": 4.8,
      "priceLevel": 4,
      "address": "456 Geary St, San Francisco, CA",
      "latitude": 37.7871,
      "longitude": -122.4112,
      "imageUrl": "https://images.unsplash.com/photo-1579584425555-c3ce17fd4351?w=800",
      "description": "Premium omakase experience featuring seasonal fish flown in daily from Tokyo's Tsukiji market."
    },
    {
      "id": "r3",
      "name": "Casa Verde",
      "cuisine": "MEXICAN",
      "rating": 4.5,
      "priceLevel": 2,
      "address": "789 Mission St, San Francisco, CA",
      "latitude": 37.7849,
      "longitude": -122.4094,
      "imageUrl": "https://images.unsplash.com/photo-1565299585323-38d6b0865b47?w=800",
      "description": "Vibrant taqueria serving authentic street tacos, fresh guacamole, and craft margaritas."
    },
    {
      "id": "r4",
      "name": "Spice Route",
      "cuisine": "INDIAN",
      "rating": 4.6,
      "priceLevel": 2,
      "address": "321 Valencia St, San Francisco, CA",
      "latitude": 37.7648,
      "longitude": -122.4219,
      "imageUrl": "https://images.unsplash.com/photo-1585937421612-70a008356fbe?w=800",
      "description": "Modern Indian kitchen blending traditional tandoor techniques with contemporary plating."
    },
    {
      "id": "r5",
      "name": "The Burger Joint",
      "cuisine": "AMERICAN",
      "rating": 4.3,
      "priceLevel": 2,
      "address": "555 Market St, San Francisco, CA",
      "latitude": 37.7896,
      "longitude": -122.4009,
      "imageUrl": "https://images.unsplash.com/photo-1568901347635-c0230a8590dd?w=800",
      "description": "Classic American diner serving grass-fed burgers, crispy fries, and thick milkshakes."
    },
    {
      "id": "r6",
      "name": "Golden Dragon",
      "cuisine": "CHINESE",
      "rating": 4.4,
      "priceLevel": 2,
      "address": "888 Grant Ave, San Francisco, CA",
      "latitude": 37.7941,
      "longitude": -122.4078,
      "imageUrl": "https://images.unsplash.com/photo-1525755662778-989d0522907e?w=800",
      "description": "Chinatown institution famous for dim sum brunches and Peking duck carved tableside."
    },
    {
      "id": "r7",
      "name": "Bangkok Garden",
      "cuisine": "THAI",
      "rating": 4.5,
      "priceLevel": 2,
      "address": "234 Polk St, San Francisco, CA",
      "latitude": 37.7925,
      "longitude": -122.4201,
      "imageUrl": "https://images.unsplash.com/photo-1559314809-0d155014e29e?w=800",
      "description": "Aromatic Thai curries, pad thai, and spicy basil stir-fries in a lush garden setting."
    },
    {
      "id": "r8",
      "name": "Le Petit Bistro",
      "cuisine": "FRENCH",
      "rating": 4.9,
      "priceLevel": 4,
      "address": "100 Fillmore St, San Francisco, CA",
      "latitude": 37.7719,
      "longitude": -122.4313,
      "imageUrl": "https://images.unsplash.com/photo-1414235077428-338989a2e8c0?w=800",
      "description": "Elegant French bistro offering escargot, coq au vin, and an award-winning wine cellar."
    },
    {
      "id": "r9",
      "name": "Olive & Thyme",
      "cuisine": "MEDITERRANEAN",
      "rating": 4.6,
      "priceLevel": 3,
      "address": "678 Castro St, San Francisco, CA",
      "latitude": 37.7609,
      "longitude": -122.4350,
      "imageUrl": "https://images.unsplash.com/photo-1540189549336-e6e99c3679fe?w=800",
      "description": "Sun-kissed Mediterranean plates with mezze spreads, grilled seafood, and fresh hummus."
    },
    {
      "id": "r10",
      "name": "Seoul Kitchen",
      "cuisine": "KOREAN",
      "rating": 4.7,
      "priceLevel": 2,
      "address": "412 Irving St, San Francisco, CA",
      "latitude": 37.7637,
      "longitude": -122.4637,
      "imageUrl": "https://images.unsplash.com/photo-1590301157890-4810ed352733?w=800",
      "description": "Sizzling Korean BBQ, bubbling kimchi jjigae, and banchan served with every meal."
    },
    {
      "id": "r11",
      "name": "Nonna's Table",
      "cuisine": "ITALIAN",
      "rating": 4.4,
      "priceLevel": 2,
      "address": "901 Divisadero St, San Francisco, CA",
      "latitude": 37.7775,
      "longitude": -122.4382,
      "imageUrl": "https://images.unsplash.com/photo-1559339352-11d035aa65de?w=800",
      "description": "Family-run trattoria with Sunday gravy, ricotta gnocchi, and tiramisu made in-house."
    },
    {
      "id": "r12",
      "name": "Ramen House 47",
      "cuisine": "JAPANESE",
      "rating": 4.5,
      "priceLevel": 1,
      "address": "47 Haight St, San Francisco, CA",
      "latitude": 37.7699,
      "longitude": -122.4469,
      "imageUrl": "https://images.unsplash.com/photo-1569718212165-3a8278d5f624?w=800",
      "description": "Late-night ramen spot with rich tonkotsu broth, soft-boiled eggs, and house-made noodles."
    },
    {
      "id": "r13",
      "name": "Taco Libre",
      "cuisine": "MEXICAN",
      "rating": 4.2,
      "priceLevel": 1,
      "address": "1500 Ocean Ave, San Francisco, CA",
      "latitude": 37.7234,
      "longitude": -122.4567,
      "imageUrl": "https://images.unsplash.com/photo-1551504733-874fe974c67d?w=800",
      "description": "Fast-casual Mexican with build-your-own burrito bowls and house-made salsas."
    },
    {
      "id": "r14",
      "name": "Curry Leaf",
      "cuisine": "INDIAN",
      "rating": 4.3,
      "priceLevel": 2,
      "address": "2200 Taraval St, San Francisco, CA",
      "latitude": 37.7421,
      "longitude": -122.4845,
      "imageUrl": "https://images.unsplash.com/photo-1588166524941-3bf61a9c41db?w=800",
      "description": "South Indian specialties including dosas, biryanis, and coconut-based curries."
    },
    {
      "id": "r15",
      "name": "Farm & Table",
      "cuisine": "AMERICAN",
      "rating": 4.6,
      "priceLevel": 3,
      "address": "3500 California St, San Francisco, CA",
      "latitude": 37.7865,
      "longitude": -122.4512,
      "imageUrl": "https://images.unsplash.com/photo-1466978913421-dad2ebd01d17?w=800",
      "description": "Farm-to-table American cuisine highlighting local produce and sustainable sourcing."
    },
    {
      "id": "r16",
      "name": "Jade Palace",
      "cuisine": "CHINESE",
      "rating": 4.1,
      "priceLevel": 3,
      "address": "600 Stockton St, San Francisco, CA",
      "latitude": 37.7956,
      "longitude": -122.4089,
      "imageUrl": "https://images.unsplash.com/photo-1526318896989-4d354e2eeabb?w=800",
      "description": "Upscale Cantonese dining with live seafood tanks and banquet-style family meals."
    },
    {
      "id": "r17",
      "name": "Thai Orchid",
      "cuisine": "THAI",
      "rating": 4.4,
      "priceLevel": 2,
      "address": "1800 Sutter St, San Francisco, CA",
      "latitude": 37.7867,
      "longitude": -122.4301,
      "imageUrl": "https://images.unsplash.com/photo-1455619452474-d2be8b1e70cd?w=800",
      "description": "Authentic Thai flavors with mango sticky rice and spicy papaya salad."
    },
    {
      "id": "r18",
      "name": "Bistro Margaux",
      "cuisine": "FRENCH",
      "rating": 4.7,
      "priceLevel": 3,
      "address": "2900 24th St, San Francisco, CA",
      "latitude": 37.7528,
      "longitude": -122.4184,
      "imageUrl": "https://images.unsplash.com/photo-1504674900247-0877df9cc836?w=800",
      "description": "Neighborhood French cafe with croque monsieur, onion soup, and sidewalk seating."
    },
    {
      "id": "r19",
      "name": "Aegean Blue",
      "cuisine": "MEDITERRANEAN",
      "rating": 4.5,
      "priceLevel": 2,
      "address": "750 Clement St, San Francisco, CA",
      "latitude": 37.7828,
      "longitude": -122.4638,
      "imageUrl": "https://images.unsplash.com/photo-1540189549336-e6e99c3679fe?w=800",
      "description": "Greek-inspired mezze, grilled octopus, and baklava in a breezy coastal-themed space."
    },
    {
      "id": "r20",
      "name": "K-Town BBQ",
      "cuisine": "KOREAN",
      "rating": 4.6,
      "priceLevel": 3,
      "address": "1100 S Van Ness Ave, San Francisco, CA",
      "latitude": 37.7543,
      "longitude": -122.4168,
      "imageUrl": "https://images.unsplash.com/photo-1590301157890-4810ed352733?w=800",
      "description": "Interactive tabletop grilling with premium marinated short rib and soju cocktails."
    }
  ]
}
